<?xml version="1.0" encoding="utf-8"?>
<Radars>
  <Radar Name="Sydney TAR" Type="PRI" Elevation="108" MaxRange="80">
    <Lat>-33.9499180555555</Lat>
    <Long>151.181285</Long>
  </Radar>
  <Radar Name="Nowra TAR" Type="PRI" Elevation="643" MaxRange="80">
    <Lat>-34.9371830555556</Lat>
    <Long>150.571511111111</Long>
  </Radar>
  <Radar Name="Mt Majura" Type="PRI" Elevation="2940" MaxRange="80">
    <Lat>-35.2376169444444</Lat>
    <Long>149.182331111111</Long>
  </Radar>
  <Radar Name="Mt Hardgrave" Type="PRI" Elevation="827" MaxRange="80">
    <Lat>-27.5000038888889</Lat>
    <Long>153.453186111111</Long>
  </Radar>
  <Radar Name="Townsville" Type="PRI" Elevation="620" MaxRange="80">
    <Lat>-19.189145</Lat>
    <Long>146.764721944444</Long>
  </Radar>
  <Radar Name="Redden Creek TAR" Type="PRI" Elevation="108" MaxRange="80">
    <Lat>-16.86076</Lat>
    <Long>145.747006944444</Long>
  </Radar>
  <Radar Name="Adelaide TAR" Type="PRI" Elevation="105" MaxRange="80">
    <Lat>-34.9524288888889</Lat>
    <Long>138.53208</Long>
  </Radar>
  <Radar Name="Perth TAR" Type="PRI" Elevation="138" MaxRange="80">
    <Lat>-31.9227</Lat>
    <Long>115.981478888889</Long>
  </Radar>
  <Radar Name="Gellibrand Hill TAR" Type="PRI" Elevation="741" MaxRange="80">
    <Lat>-37.6528430555556</Lat>
    <Long>144.874253888889</Long>
  </Radar>
  <Radar Name="Curtin" Type="PRI" Elevation="310" MaxRange="80">
    <Lat>-17.5785</Lat>
    <Long>123.83758333</Long>
  </Radar>
  <Radar Name="Learmonth" Type="PRI" Elevation="43" MaxRange="80">
    <Lat>-22.2409369444444</Lat>
    <Long>114.09436</Long>
  </Radar>
  <Radar Name="Scherger" Type="PRI" Elevation="155" MaxRange="80">
    <Lat>-12.62008033536502</Lat>
    <Long>142.0869844420872</Long>
  </Radar>
  <Radar Name="East Sale" Type="PRI" Elevation="285" MaxRange="80">
    <Lat>-38.188055</Lat>
    <Long>147.182503888889</Long>
  </Radar>
  <Radar Name="Mt Somerville" Type="PRI" Elevation="1129" MaxRange="80">
    <Lat>-28.2155580555556</Lat>
    <Long>153.426003055556</Long>
  </Radar>
  <Radar Name="Williamtown" Type="PRI" Elevation="259" MaxRange="80">
    <Lat>-32.7734188888889</Lat>
    <Long>151.82197</Long>
  </Radar>
  <Radar Name="Oakey" Type="PRI" Elevation="1713" MaxRange="80">
    <Lat>-27.32683</Lat>
    <Long>151.73884</Long>
  </Radar>
  <Radar Name="Cecil Park" Type="PRI" Elevation="463" MaxRange="80">
    <Lat>-33.87649</Lat>
    <Long>150.837758055556</Long>
  </Radar>
  <Radar Name="Pearce TAR" Type="PRI" Elevation="748" MaxRange="80">
    <Lat>-31.3937919444444</Lat>
    <Long>115.931731111111</Long>
  </Radar>
  <Radar Name="Darwin TAR" Type="PRI" Elevation="151" MaxRange="80">
    <Lat>-12.4027638888889</Lat>
    <Long>130.862743888889</Long>
  </Radar>
  <Radar Name="Tindal TAR" Type="PRI" Elevation="610" MaxRange="80">
    <Lat>-14.49278</Lat>
    <Long>132.391943888889</Long>
  </Radar>
  <Radar Name="Amberley TAR" Type="PRI" Elevation="299" MaxRange="80">
    <Lat>-27.63528</Lat>
    <Long>152.681111111111</Long>
  </Radar>
  <Radar Name="Amberley" Type="SSR_ModeC" Elevation="299" MaxRange="255">
    <Lat>-27.63528</Lat>
    <Long>152.681111111111</Long>
  </Radar>
  <Radar Name="Nowra TAR" Type="SSR_ModeC" Elevation="643" MaxRange="255">
    <Lat>-34.9371830555556</Lat>
    <Long>150.571511111111</Long>
  </Radar>
  <Radar Name="RAAF Darwin" Type="SSR_ModeC" Elevation="151" MaxRange="255">
    <Lat>-12.4027638888889</Lat>
    <Long>130.862743888889</Long>
  </Radar>
  <Radar Name="Townsville" Type="SSR_ModeC" Elevation="620" MaxRange="255">
    <Lat>-19.189145</Lat>
    <Long>146.764721944444</Long>
  </Radar>
  <Radar Name="Oakey" Type="SSR_ModeC" Elevation="1821" MaxRange="255">
    <Lat>-27.328345</Lat>
    <Long>151.737883055556</Long>
  </Radar>
  <Radar Name="East Sale" Type="SSR_ModeC" Elevation="285" MaxRange="255">
    <Lat>-38.188055</Lat>
    <Long>147.182503888889</Long>
  </Radar>
  <Radar Name="Curtin" Type="SSR_ModeC" Elevation="310" MaxRange="255">
    <Lat>-17.5785</Lat>
    <Long>123.83758333</Long>
  </Radar>
  <Radar Name="Scherger" Type="SSR_ModeC" Elevation="155" MaxRange="255">
    <Lat>-12.62008033536502</Lat>
    <Long>142.0869844420872</Long>
  </Radar>
  <Radar Name="Learmonth" Type="SSR_ModeC" Elevation="43" MaxRange="255">
    <Lat>-22.2409369444444</Lat>
    <Long>114.09436</Long>
  </Radar>
  <Radar Name="Bathurst Island" Type="SSR_ModeC" Elevation="59" MaxRange="255">
    <Lat>-11.7588738888889</Lat>
    <Long>130.034535</Long>
  </Radar>
  <Radar Name="GinGin" Type="SSR_ModeC" Elevation="748" MaxRange="255">
    <Lat>-31.3937919444444</Lat>
    <Long>115.931731111111</Long>
  </Radar>
  <Radar Name="Tindal" Type="SSR_ModeC" Elevation="610" MaxRange="255">
    <Lat>-14.49278</Lat>
    <Long>132.391943888889</Long>
  </Radar>
  <Radar Name="Williamtown" Type="SSR_ModeC" Elevation="197" MaxRange="255">
    <Lat>-32.7734188888889</Lat>
    <Long>151.82197</Long>
  </Radar>
  <Radar Name="Brisbane TAR" Type="SSR_ModeS" Elevation="43" MaxRange="255">
    <Lat>-27.3576969444444</Lat>
    <Long>153.116081111111</Long>
  </Radar>
  <Radar Name="Mt Hardgrave" Type="SSR_ModeS" Elevation="827" MaxRange="255">
    <Lat>-27.5000038888889</Lat>
    <Long>153.453186111111</Long>
  </Radar>
  <Radar Name="Redden Creek" Type="SSR_ModeC" Elevation="108" MaxRange="255">
    <Lat>-16.86076</Lat>
    <Long>145.747006944444</Long>
  </Radar>
  <Radar Name="Eungella" Type="SSR_ModeS" Elevation="3684" MaxRange="255">
    <Lat>-21.0826480555556</Lat>
    <Long>148.439388055556</Long>
  </Radar>
  <Radar Name="Mt Alma" Type="SSR_ModeS" Elevation="2484" MaxRange="255">
    <Lat>-23.9596619444444</Lat>
    <Long>150.804856111111</Long>
  </Radar>
  <Radar Name="Hann Tableland" Type="SSR_ModeS" Elevation="3274" MaxRange="255">
    <Lat>-16.915565</Lat>
    <Long>145.252083055556</Long>
  </Radar>
  <Radar Name="Kalamunda" Type="SSR_ModeS" Elevation="1184" MaxRange="255">
    <Lat>-31.99097</Lat>
    <Long>116.071493888889</Long>
  </Radar>
  <Radar Name="Greenhill" Type="SSR_ModeS" Elevation="2106" MaxRange="255">
    <Lat>-34.952235</Lat>
    <Long>138.717026111111</Long>
  </Radar>
  <Radar Name="Darwin" Type="SSR_ModeC" Elevation="200" MaxRange="255">
    <Lat>-12.4304430555556</Lat>
    <Long>130.961518055556</Long>
  </Radar>
  <Radar Name="Adelaide TAR" Type="SSR_ModeC" Elevation="105" MaxRange="255">
    <Lat>-34.9524288888889</Lat>
    <Long>138.53208</Long>
  </Radar>
  <Radar Name="Mt Bobbara" Type="SSR_ModeS" Elevation="2546" MaxRange="255">
    <Lat>-34.6398330555556</Lat>
    <Long>148.589815</Long>
  </Radar>
  <Radar Name="Mt Majura" Type="SSR_ModeS" Elevation="2940" MaxRange="255">
    <Lat>-35.2376169444444</Lat>
    <Long>149.182331111111</Long>
  </Radar>
  <Radar Name="Sydney TAR" Type="SSR_ModeC" Elevation="108" MaxRange="255">
    <Lat>-33.9499180555555</Lat>
    <Long>151.181285</Long>
  </Radar>
  <Radar Name="Cecil Park" Type="SSR_ModeS" Elevation="463" MaxRange="255">
    <Lat>-33.87649</Lat>
    <Long>150.837758055556</Long>
  </Radar>
  <Radar Name="Round Mountain" Type="SSR_ModeS" Elevation="5098" MaxRange="255">
    <Lat>-30.4376688888889</Lat>
    <Long>152.2403</Long>
  </Radar>
  <Radar Name="Mt Macedon" Type="SSR_ModeS" Elevation="3425" MaxRange="255">
    <Lat>-37.3833769444444</Lat>
    <Long>144.575878055556</Long>
  </Radar>
  <Radar Name="Mt Somerville" Type="SSR_ModeC" Elevation="1129" MaxRange="255">
    <Lat>-28.2155580555556</Lat>
    <Long>153.426003055556</Long>
  </Radar>
  <Radar Name="Tindal" Type="ADSB" Elevation="509" MaxRange="250">
    <Lat>-14.5130211111111</Lat>
    <Long>132.363418055556</Long>
  </Radar>
  <Radar Name="Yulara" Type="ADSB" Elevation="1647" MaxRange="250">
    <Lat>-25.1730088888889</Lat>
    <Long>130.974791111111</Long>
  </Radar>
  <Radar Name="Pt Lookout" Type="ADSB" Elevation="5089" MaxRange="250">
    <Lat>-30.4817288888889</Lat>
    <Long>152.397643055556</Long>
  </Radar>
  <Radar Name="Orange" Type="ADSB" Elevation="4482" MaxRange="250">
    <Lat>-33.3460119444444</Lat>
    <Long>148.981106111111</Long>
  </Radar>
  <Radar Name="Mt Big Ben" Type="ADSB" Elevation="3865" MaxRange="250">
    <Lat>-36.4035880555556</Lat>
    <Long>146.939863055556</Long>
  </Radar>
  <Radar Name="Roma" Type="ADSB" Elevation="1070" MaxRange="250">
    <Lat>-26.5426</Lat>
    <Long>148.78166</Long>
  </Radar>
  <Radar Name="Mt Isa" Type="ADSB" Elevation="1663" MaxRange="250">
    <Lat>-20.7355838888889</Lat>
    <Long>139.512693055556</Long>
  </Radar>
  <Radar Name="Nullarbor" Type="ADSB" Elevation="358" MaxRange="250">
    <Lat>-31.5811738888889</Lat>
    <Long>130.757746111111</Long>
  </Radar>
  <Radar Name="Kalamunda" Type="ADSB" Elevation="1063" MaxRange="250">
    <Lat>-31.9907088888889</Lat>
    <Long>116.071581111111</Long>
  </Radar>
  <Radar Name="Yerbillon" Type="ADSB" Elevation="1447" MaxRange="250">
    <Lat>-31.40819</Lat>
    <Long>118.76508</Long>
  </Radar>
  <Radar Name="Esperance" Type="ADSB" Elevation="502" MaxRange="250">
    <Lat>-33.6874688888889</Lat>
    <Long>121.827521944444</Long>
  </Radar>
  <Radar Name="Thursday Is" Type="ADSB" Elevation="404" MaxRange="250">
    <Lat>-10.5772419444444</Lat>
    <Long>142.227501111111</Long>
  </Radar>
  <Radar Name="Bourke" Type="ADSB" Elevation="404" MaxRange="250">
    <Lat>-30.0448419444444</Lat>
    <Long>145.949811944444</Long>
  </Radar>
  <Radar Name="Mt Watalgan" Type="ADSB" Elevation="1243" MaxRange="250">
    <Lat>-24.7021811111111</Lat>
    <Long>151.962421111111</Long>
  </Radar>
  <Radar Name="Longreach" Type="ADSB" Elevation="689" MaxRange="250">
    <Lat>-23.428125</Lat>
    <Long>144.288156111111</Long>
  </Radar>
  <Radar Name="Broome" Type="ADSB" Elevation="82" MaxRange="250">
    <Lat>-17.9546</Lat>
    <Long>122.233956111111</Long>
  </Radar>
  <Radar Name="Karratha" Type="ADSB" Elevation="105" MaxRange="250">
    <Lat>-20.7075319444444</Lat>
    <Long>116.773775</Long>
  </Radar>
  <Radar Name="Wannoo" Type="ADSB" Elevation="469" MaxRange="250">
    <Lat>-26.8159111111111</Lat>
    <Long>114.613073888889</Long>
  </Radar>
  <Radar Name="Tennant Creek" Type="ADSB" Elevation="1299" MaxRange="250">
    <Lat>-19.645175</Lat>
    <Long>134.185173055556</Long>
  </Radar>
  <Radar Name="Paraburdoo" Type="ADSB" Elevation="1558" MaxRange="250">
    <Lat>-23.2326111111111</Lat>
    <Long>117.665036111111</Long>
  </Radar>
  <Radar Name="Meekatharra" Type="ADSB" Elevation="1791" MaxRange="250">
    <Lat>-26.6118038888889</Lat>
    <Long>118.544891111111</Long>
  </Radar>
  <Radar Name="Singleton" Type="ADSB" Elevation="2316" MaxRange="250">
    <Lat>-29.4659638888889</Lat>
    <Long>117.298928055556</Long>
  </Radar>
  <Radar Name="Alice Springs" Type="ADSB" Elevation="2618" MaxRange="250">
    <Lat>-23.7223661111111</Lat>
    <Long>133.857241111111</Long>
  </Radar>
  <Radar Name="Newman" Type="ADSB" Elevation="2067" MaxRange="250">
    <Lat>-23.3622719444444</Lat>
    <Long>119.7255</Long>
  </Radar>
  <Radar Name="Jackson" Type="ADSB" Elevation="620" MaxRange="250">
    <Lat>-27.577935</Lat>
    <Long>142.378726111111</Long>
  </Radar>
  <Radar Name="Leonora" Type="ADSB" Elevation="1319" MaxRange="250">
    <Lat>-28.8795819444444</Lat>
    <Long>121.320455</Long>
  </Radar>
  <Radar Name="Birdsville" Type="ADSB" Elevation="230" MaxRange="250">
    <Lat>-25.8962869444444</Lat>
    <Long>139.353461944444</Long>
  </Radar>
  <Radar Name="Gove" Type="ADSB" Elevation="266" MaxRange="250">
    <Lat>-12.2683588888889</Lat>
    <Long>136.820816944444</Long>
  </Radar>
  <Radar Name="Warburton" Type="ADSB" Elevation="1562" MaxRange="250">
    <Lat>-26.1280469444444</Lat>
    <Long>126.577733055556</Long>
  </Radar>
  <Radar Name="Telfer" Type="ADSB" Elevation="1047" MaxRange="250">
    <Lat>-21.7123669444444</Lat>
    <Long>122.214846944444</Long>
  </Radar>
  <Radar Name="Caiguna" Type="ADSB" Elevation="390" MaxRange="250">
    <Lat>-32.2658888888889</Lat>
    <Long>125.488958055556</Long>
  </Radar>
  <Radar Name="Oodnadatta" Type="ADSB" Elevation="558" MaxRange="250">
    <Lat>-27.50715</Lat>
    <Long>135.445475</Long>
  </Radar>
  <Radar Name="Mornington Is" Type="ADSB" Elevation="108" MaxRange="250">
    <Lat>-16.6590669444444</Lat>
    <Long>139.17088</Long>
  </Radar>
  <Radar Name="Broken Hill" Type="ADSB" Elevation="1030" MaxRange="250">
    <Lat>-32.0048830555556</Lat>
    <Long>141.476283888889</Long>
  </Radar>
  <Radar Name="Learmonth" Type="ADSB" Elevation="43" MaxRange="250">
    <Lat>-22.2409369444444</Lat>
    <Long>114.09436</Long>
  </Radar>
  <Radar Name="Doogan" Type="ADSB" Elevation="1322" MaxRange="250">
    <Lat>-15.3794388888889</Lat>
    <Long>126.310401111111</Long>
  </Radar>
  <Radar Name="North Block" Type="ADSB" Elevation="1260" MaxRange="250">
    <Lat>-34.3574530555556</Lat>
    <Long>135.550841944444</Long>
  </Radar>
  <Radar Name="Kyuna" Type="ADSB" Elevation="705" MaxRange="250">
    <Lat>-21.4567611111111</Lat>
    <Long>141.95114</Long>
  </Radar>
  <Radar Name="Woomera" Type="ADSB" Elevation="630" MaxRange="250">
    <Lat>-31.1428311111111</Lat>
    <Long>136.807311111111</Long>
  </Radar>
  <Radar Name="Mt William" Type="ADSB" Elevation="3947" MaxRange="250">
    <Lat>-37.2931319444444</Lat>
    <Long>142.601406111111</Long>
  </Radar>
  <Radar Name="Eungella" Type="ADSB" Elevation="3684" MaxRange="250">
    <Lat>-21.0826480555556</Lat>
    <Long>148.439388055556</Long>
  </Radar>
  <Radar Name="Balgo Hills" Type="ADSB" Elevation="1381" MaxRange="250">
    <Lat>-20.1351088888889</Lat>
    <Long>127.989028055556</Long>
  </Radar>
  <Radar Name="Mt Barrett" Type="ADSB" Elevation="2234" MaxRange="250">
    <Lat>-18.1632288888889</Lat>
    <Long>127.550728055556</Long>
  </Radar>
  <Radar Name="Mt Sandon" Type="ADSB" Elevation="4455" MaxRange="250">
    <Lat>-31.38717</Lat>
    <Long>151.411856944444</Long>
  </Radar>
  <Radar Name="Lord Howe Is" Type="ADSB" Elevation="180" MaxRange="250">
    <Lat>-31.5272711111111</Lat>
    <Long>159.073931944444</Long>
  </Radar>
  <Radar Name="Hann Tableland" Type="ADSB" Elevation="3215" MaxRange="250">
    <Lat>-16.9158111111111</Lat>
    <Long>145.252256111111</Long>
  </Radar>
  <Radar Name="Mt Tassie" Type="ADSB" Elevation="2490" MaxRange="250">
    <Lat>-38.3999469444444</Lat>
    <Long>146.56581</Long>
  </Radar>
  <Radar Name="Mt Macedon" Type="ADSB" Elevation="3402" MaxRange="250">
    <Lat>-37.3836311111111</Lat>
    <Long>144.575863055556</Long>
  </Radar>
  <Radar Name="Mt Bingar" Type="ADSB" Elevation="1496" MaxRange="250">
    <Lat>-34.12115</Lat>
    <Long>146.235136944444</Long>
  </Radar>
  <Radar Name="Mt Hardgrave" Type="ADSB" Elevation="725" MaxRange="250">
    <Lat>-27.4999169444444</Lat>
    <Long>153.4533</Long>
  </Radar>
  <Radar Name="Mt Rumney TAS" Type="ADSB" Elevation="1276" MaxRange="250">
    <Lat>-42.8605661111111</Lat>
    <Long>147.453923888889</Long>
  </Radar>
  <Radar Name="Oatlands TAS" Type="ADSB" Elevation="2556" MaxRange="250">
    <Lat>-42.3678480555556</Lat>
    <Long>147.471248055556</Long>
  </Radar>
  <Radar Name="Wayayinah TAS" Type="ADSB" Elevation="3409" MaxRange="250">
    <Lat>-42.27083</Lat>
    <Long>146.544503055556</Long>
  </Radar>
  <Radar Name="Black Bottom Hill TAS" Type="ADSB" Elevation="2178" MaxRange="250">
    <Lat>-41.9536230555556</Lat>
    <Long>147.633913055556</Long>
  </Radar>
  <Radar Name="Mt George TAS" Type="ADSB" Elevation="732" MaxRange="250">
    <Lat>-41.1033388888889</Lat>
    <Long>146.8625</Long>
  </Radar>
  <Radar Name="Poatina Saddle TAS" Type="ADSB" Elevation="3786" MaxRange="250">
    <Lat>-41.810925</Lat>
    <Long>146.852858055556</Long>
  </Radar>
  <Radar Name="Devonport TAS" Type="ADSB" Elevation="79" MaxRange="250">
    <Lat>-41.17044</Lat>
    <Long>146.427728888889</Long>
  </Radar>
  <Radar Name="Brisbane" Type="SMR_ADSB" Elevation="246" MaxRange="5">
    <Lat>-27.3878669444444</Lat>
    <Long>153.115481111111</Long>
  </Radar>
  <Radar Name="Perth" Type="SMR_ADSB" Elevation="295" MaxRange="5">
    <Lat>-31.9433719444444</Lat>
    <Long>115.975061111111</Long>
  </Radar>
  <Radar Name="Sydney" Type="SMR_ADSB" Elevation="144" MaxRange="5">
    <Lat>-33.94541</Lat>
    <Long>151.18073</Long>
  </Radar>
  <Radar Name="Melbourne" Type="SMR_ADSB" Elevation="476" MaxRange="5">
    <Lat>-37.6577219444444</Lat>
    <Long>144.831525</Long>
  </Radar>
  <Radar Name="Richmond" Type="SMR_ADSB" Elevation="180" MaxRange="5">
    <Lat>-33.5965580555556</Lat>
    <Long>150.775608055556</Long>
  </Radar>
  <Radar Name="Amberley" Type="SMR_ADSB" Elevation="91" MaxRange="5">
    <Lat>-27.6405555555556</Lat>
    <Long>152.711944444444</Long>
  </Radar>
  <Radar Name="Archerfield" Type="SMR_ADSB" Elevation="65" MaxRange="5">
    <Lat>-27.5702777777778</Lat>
    <Long>153.008055555556</Long>
  </Radar>
  <Radar Name="Alice Springs" Type="SMR_ADSB" Elevation="1789" MaxRange="5">
    <Lat>-23.8083333333333</Lat>
    <Long>133.900833333333</Long>
  </Radar>
  <Radar Name="Gold Coast" Type="SMR_ADSB" Elevation="21" MaxRange="5">
    <Lat>-28.1644444444444</Lat>
    <Long>153.504722222222</Long>
  </Radar>
  <Radar Name="Cairns" Type="SMR_ADSB" Elevation="10" MaxRange="5">
    <Lat>-16.8858333333333</Lat>
    <Long>145.755277777778</Long>
  </Radar>
  <Radar Name="Hamilton Island" Type="SMR_ADSB" Elevation="15" MaxRange="5">
    <Lat>-20.3580555555556</Lat>
    <Long>148.951666666667</Long>
  </Radar>
  <Radar Name="Mackay" Type="SMR_ADSB" Elevation="19" MaxRange="5">
    <Lat>-21.1713888888889</Lat>
    <Long>149.179722222222</Long>
  </Radar>
  <Radar Name="Oakey" Type="SMR_ADSB" Elevation="1336" MaxRange="5">
    <Lat>-27.4113888888889</Lat>
    <Long>151.735277777778</Long>
  </Radar>
  <Radar Name="Rockhampton" Type="SMR_ADSB" Elevation="36" MaxRange="5">
    <Lat>-23.3819444444444</Lat>
    <Long>150.475277777778</Long>
  </Radar>
  <Radar Name="Broome" Type="SMR_ADSB" Elevation="57" MaxRange="5">
    <Lat>-17.9494444444444</Lat>
    <Long>122.227777777778</Long>
  </Radar>
  <Radar Name="Sunshine Coast" Type="SMR_ADSB" Elevation="15" MaxRange="5">
    <Lat>-26.6033333333333</Lat>
    <Long>153.091111111111</Long>
  </Radar>
  <Radar Name="Townsville" Type="SMR_ADSB" Elevation="18" MaxRange="5">
    <Lat>-19.2525</Lat>
    <Long>146.765277777778</Long>
  </Radar>
  <Radar Name="Coffs Harbour" Type="SMR_ADSB" Elevation="18" MaxRange="5">
    <Lat>-30.3205555555556</Lat>
    <Long>153.116388888889</Long>
  </Radar>
  <Radar Name="GinGin" Type="SMR_ADSB" Elevation="247" MaxRange="5">
    <Lat>-31.4652777777778</Lat>
    <Long>115.863333333333</Long>
  </Radar>
  <Radar Name="Avalon" Type="SMR_ADSB" Elevation="35" MaxRange="5">
    <Lat>-38.0394444444444</Lat>
    <Long>144.469444444444</Long>
  </Radar>
  <Radar Name="Albury" Type="SMR_ADSB" Elevation="539" MaxRange="5">
    <Lat>-36.0677777777778</Lat>
    <Long>146.958055555556</Long>
  </Radar>
  <Radar Name="Essendon" Type="SMR_ADSB" Elevation="282" MaxRange="5">
    <Lat>-37.7280555555556</Lat>
    <Long>144.901944444444</Long>
  </Radar>
  <Radar Name="East Sale" Type="SMR_ADSB" Elevation="23" MaxRange="5">
    <Lat>-38.0988888888889</Lat>
    <Long>147.149444444444</Long>
  </Radar>
  <Radar Name="Hobart" Type="SMR_ADSB" Elevation="13" MaxRange="5">
    <Lat>-42.8361111111111</Lat>
    <Long>147.510277777778</Long>
  </Radar>
  <Radar Name="Launceston" Type="SMR_ADSB" Elevation="562" MaxRange="5">
    <Lat>-41.5452777777778</Lat>
    <Long>147.214166666667</Long>
  </Radar>
  <Radar Name="Moorabbin" Type="SMR_ADSB" Elevation="55" MaxRange="5">
    <Lat>-37.9758333333333</Lat>
    <Long>145.102222222222</Long>
  </Radar>
  <Radar Name="Adelaide" Type="SMR_ADSB" Elevation="20" MaxRange="5">
    <Lat>-34.945</Lat>
    <Long>138.530555555556</Long>
  </Radar>
  <Radar Name="Darwin" Type="SMR_ADSB" Elevation="103" MaxRange="5">
    <Lat>-12.4147222222222</Lat>
    <Long>130.876666666667</Long>
  </Radar>
  <Radar Name="Pearce" Type="SMR_ADSB" Elevation="150" MaxRange="5">
    <Lat>-31.6677777777778</Lat>
    <Long>116.015</Long>
  </Radar>
  <Radar Name="Edinburgh" Type="SMR_ADSB" Elevation="67" MaxRange="5">
    <Lat>-34.7025</Lat>
    <Long>138.620833333333</Long>
  </Radar>
  <Radar Name="Jandakot" Type="SMR_ADSB" Elevation="99" MaxRange="5">
    <Lat>-32.0975</Lat>
    <Long>115.881111111111</Long>
  </Radar>
  <Radar Name="Karratha" Type="SMR_ADSB" Elevation="33" MaxRange="5">
    <Lat>-20.7122222222222</Lat>
    <Long>116.773333333333</Long>
  </Radar>
  <Radar Name="Parafield" Type="SMR_ADSB" Elevation="57" MaxRange="5">
    <Lat>-34.7933333333333</Lat>
    <Long>138.633055555556</Long>
  </Radar>
  <Radar Name="Tindal" Type="SMR_ADSB" Elevation="443" MaxRange="5">
    <Lat>-14.5211111111111</Lat>
    <Long>132.377777777778</Long>
  </Radar>
  <Radar Name="Bankstown" Type="SMR_ADSB" Elevation="34" MaxRange="5">
    <Lat>-33.9244444444444</Lat>
    <Long>150.988333333333</Long>
  </Radar>
  <Radar Name="Canberra" Type="SMR_ADSB" Elevation="1886" MaxRange="5">
    <Lat>-35.3069444444444</Lat>
    <Long>149.195</Long>
  </Radar>
  <Radar Name="Camden" Type="SMR_ADSB" Elevation="230" MaxRange="5">
    <Lat>-34.0402777777778</Lat>
    <Long>150.686666666667</Long>
  </Radar>
  <Radar Name="Nowra" Type="SMR_ADSB" Elevation="400" MaxRange="5">
    <Lat>-34.9488888888889</Lat>
    <Long>150.536944444444</Long>
  </Radar>
  <Radar Name="Tamworth" Type="SMR_ADSB" Elevation="1335" MaxRange="5">
    <Lat>-31.0838888888889</Lat>
    <Long>150.846666666667</Long>
  </Radar>
  <Radar Name="Williamtown" Type="SMR_ADSB" Elevation="31" MaxRange="5">
    <Lat>-32.795</Lat>
    <Long>151.834444444444</Long>
  </Radar>
  <Radar Name="Curtin" Type="SMR_ADSB" Elevation="300" MaxRange="5">
    <Lat>-17.581389</Lat>
    <Long>123.828333</Long>
  </Radar>
  <Radar Name="Learmonth" Type="SMR_ADSB" Elevation="19" MaxRange="5">
    <Lat>-22.235556</Lat>
    <Long>114.088611</Long>
  </Radar>
  <Radar Name="Scherger" Type="SMR_ADSB" Elevation="145" MaxRange="5">
    <Lat>-12.623889</Lat>
    <Long>142.087222</Long>
  </Radar>
    <Radar Name="Woomera" Type="SMR_ADSB" Elevation="549" MaxRange="5">
    <Lat>-31.144167</Lat>
    <Long>136.816944</Long>
  </Radar>
   <!--
  Shared Indonesia Data
  -->
  <Radar Name="Merauke" Type="ADSB" Elevation="36" MaxRange="250">
    <Lat>-8.51769</Lat>
    <Long>140.41450</Long>
  </Radar>
  <Radar Name="Timika" Type="ADSB" Elevation="92" MaxRange="250">
    <Lat>-4.53391</Lat>
    <Long>136.88863</Long>
  </Radar>
  <Radar Name="Saumlaki" Type="ADSB" Elevation="223" MaxRange="250">
    <Lat>-7.98819</Lat>
    <Long>131.30682</Long>
  </Radar>
  <Radar Name="Kupang" Type="ADSB" Elevation="334" MaxRange="250">
    <Lat>-10.16723</Lat>
    <Long>123.67067</Long>
  </Radar>
  <Radar Name="Waingapu" Type="ADSB" Elevation="26" MaxRange="250">
    <Lat>-9.66969</Lat>
    <Long>120.30008</Long>
  </Radar>
  <Radar Name="Kintamani" Type="ADSB" Elevation="4721" MaxRange="250">
    <Lat>-8.25056</Lat>
    <Long>115.33301</Long>
  </Radar>
  <Radar Name="Alor" Type="ADSB" Elevation="23" MaxRange="250">
    <Lat>-8.13483</Lat>
    <Long>124.59743</Long>
  </Radar>
  <Radar Name="Semarang" Type="ADSB" Elevation="13" MaxRange="250">
    <Lat>-6.97799</Lat>
    <Long>110.37279</Long>
  </Radar>
  <!--
  Shared PNG Data
  -->
  <Radar Name="MORSEBY PNG" Type="PRI" Elevation="140" MaxRange="80">
    <Lat>-9.44388055555556</Lat>
    <Long>147.226391666667</Long>
  </Radar>
  <Radar Name="MORSEBY PNG" Type="SSR_ModeS" Elevation="140" MaxRange="250">
    <Lat>-9.44388055555556</Lat>
    <Long>147.226391666667</Long>
  </Radar>
  <Radar Name="Mt Nauwein PNG" Type="ADSB" Elevation="4700" MaxRange="250">
    <Lat>-6.52627777777778</Lat>
    <Long>146.093055555556</Long>
  </Radar>
  <Radar Name="Mt Mission PNG" Type="ADSB" Elevation="350" MaxRange="250">
    <Lat>-4.5</Lat>
    <Long>142.5</Long>
  </Radar>
  <Radar Name="Mt Konokalang PNG" Type="ADSB" Elevation="5000" MaxRange="250">
    <Lat>-4.41666666666667</Lat>
    <Long>152.833333333333</Long>
  </Radar>
  <Radar Name="Mt Dimodimo PNG" Type="ADSB" Elevation="2700" MaxRange="250">
    <Lat>-6.5</Lat>
    <Long>142.833333333333</Long>
  </Radar>
  <Radar Name="Lorengau PNG" Type="ADSB" Elevation="450" MaxRange="250">
    <Lat>-2.05</Lat>
    <Long>145.283333333333</Long>
  </Radar>
  <Radar Name="Mt Robinson PNG" Type="ADSB" Elevation="450" MaxRange="250">
    <Lat>-4.9</Lat>
    <Long>141.15</Long>
  </Radar>
  <Radar Name="Burns Peak PNG" Type="ADSB" Elevation="800" MaxRange="250">
    <Lat>-9.45532222222222</Lat>
    <Long>147.164572222222</Long>
  </Radar>
  <!--
  Shared Indonesia Data
  -->
  <Radar Name="Merauke" Type="ADSB" Elevation="36" MaxRange="250">
    <Lat>-8.51769</Lat>
    <Long>140.41450</Long>
  </Radar>
  <Radar Name="Timika" Type="ADSB" Elevation="92" MaxRange="250">
    <Lat>-4.53391</Lat>
    <Long>136.88863</Long>
  </Radar>
  <Radar Name="Saumlaki" Type="ADSB" Elevation="223" MaxRange="250">
    <Lat>-7.98819</Lat>
    <Long>131.30682</Long>
  </Radar>
  <Radar Name="Kupang" Type="ADSB" Elevation="334" MaxRange="250">
    <Lat>-10.16723</Lat>
    <Long>123.67067</Long>
  </Radar>
  <Radar Name="Waingapu" Type="ADSB" Elevation="26" MaxRange="250">
    <Lat>-9.66969</Lat>
    <Long>120.30008</Long>
  </Radar>
  <Radar Name="Kintamani" Type="ADSB" Elevation="4721" MaxRange="250">
    <Lat>-8.25056</Lat>
    <Long>115.33301</Long>
  </Radar>
  <Radar Name="Alor" Type="ADSB" Elevation="23" MaxRange="250">
    <Lat>-8.13483</Lat>
    <Long>124.59743</Long>
  </Radar>
  <Radar Name="Semarang" Type="ADSB" Elevation="13" MaxRange="250">
    <Lat>-6.97799</Lat>
    <Long>110.37279</Long>
  </Radar>
  <!--
  Shared PNG Data
  -->
  <Radar Name="MORSEBY PNG" Type="PRI" Elevation="140" MaxRange="80">
    <Lat>-9.44388055555556</Lat>
    <Long>147.226391666667</Long>
  </Radar>
  <Radar Name="MORSEBY PNG" Type="SSR_ModeS" Elevation="140" MaxRange="250">
    <Lat>-9.44388055555556</Lat>
    <Long>147.226391666667</Long>
  </Radar>
  <Radar Name="Mt Nauwein PNG" Type="ADSB" Elevation="4700" MaxRange="250">
    <Lat>-6.52627777777778</Lat>
    <Long>146.093055555556</Long>
  </Radar>
  <Radar Name="Mt Mission PNG" Type="ADSB" Elevation="350" MaxRange="250">
    <Lat>-4.5</Lat>
    <Long>142.5</Long>
  </Radar>
  <Radar Name="Mt Konokalang PNG" Type="ADSB" Elevation="5000" MaxRange="250">
    <Lat>-4.41666666666667</Lat>
    <Long>152.833333333333</Long>
  </Radar>
  <Radar Name="Mt Dimodimo PNG" Type="ADSB" Elevation="2700" MaxRange="250">
    <Lat>-6.5</Lat>
    <Long>142.833333333333</Long>
  </Radar>
  <Radar Name="Lorengau PNG" Type="ADSB" Elevation="450" MaxRange="250">
    <Lat>-2.05</Lat>
    <Long>145.283333333333</Long>
  </Radar>
  <Radar Name="Mt Robinson PNG" Type="ADSB" Elevation="450" MaxRange="250">
    <Lat>-4.9</Lat>
    <Long>141.15</Long>
  </Radar>
  <Radar Name="Burns Peak PNG" Type="ADSB" Elevation="800" MaxRange="250">
    <Lat>-9.45532222222222</Lat>
    <Long>147.164572222222</Long>
  </Radar>
</Radars>
