<?xml version="1.0"?>
<Radars>
  <Radar Name="Adelaide TAR" Type="SSR_ModeC" Elevation="31" MaxRange="255">
    <Lat>-34.9525</Lat>
    <Long>138.531944444444</Long>
  </Radar>
  <Radar Name="Adelaide TAR" Type="PRI" MaxRange="50" Elevation="31">
    <Lat>-34.9525</Lat>
    <Long>138.531944444444</Long>
  </Radar>
  <Radar Name="East Sale" Type="SSR_ModeC" Elevation="97" MaxRange="255">
    <Lat>-38.1883333333333</Lat>
    <Long>147.1825</Long>
  </Radar>
  <Radar Name="Gellibrand Hill TAR" Type="SSR_ModeC" Elevation="224" MaxRange="255">
    <Lat>-37.6527777777778</Lat>
    <Long>144.874166666667</Long>
  </Radar>
  <Radar Name="Gellibrand Hill TAR" Type="PRI" MaxRange="50" Elevation="224">
    <Lat>-37.6527777777778</Lat>
    <Long>144.874166666667</Long>
  </Radar>
  <Radar Name="Kalamunda" Type="SSR_ModeC" Elevation="360" MaxRange="255">
    <Lat>-31.9908333333333</Lat>
    <Long>116.071388888889</Long>
  </Radar>
  <Radar Name="Melbourne SMR" Type="SMR" MaxRange="5" Elevation="434">
    <Lat>-37.657709</Lat>
    <Long>144.831475</Long>
  </Radar>
  <!--
  <Radar Name="Melbourne ASMGCS" Type="SSR_ModeS" MaxRange="5" Elevation="434">
    <Lat>-37.658048</Lat>
    <Long>144.831377</Long>
  </Radar>
  -->
  <Radar Name="Mt. Bobbara" Type="SSR_ModeC" Elevation="750" MaxRange="255">
    <Lat>-34.6397222222222</Lat>
    <Long>148.59</Long>
  </Radar>
  <Radar Name="Mt. Boyce" Type="SSR_ModeC" Elevation="1078" MaxRange="255">
    <Lat>-33.6133333333333</Lat>
    <Long>150.269444444444</Long>
  </Radar>
  <Radar Name="Sydney TAR" Type="SSR_ModeC" Elevation="25" MaxRange="255">
    <Lat>-33.95</Lat>
    <Long>151.181388888889</Long>
  </Radar>
  <Radar Name="Sydney TAR" Type="PRI" MaxRange="50" Elevation="25">
    <Lat>-33.95</Lat>
    <Long>151.181388888889</Long>
  </Radar>
  <Radar Name="Mt. Macedon" Type="SSR_ModeC" Elevation="1074" MaxRange="255">
    <Lat>-37.3833333333333</Lat>
    <Long>144.575833333333</Long>
  </Radar>
  <Radar Name="Mt. Majura" Type="SSR_ModeC" Elevation="920" MaxRange="255">
    <Lat>-35.2375</Lat>
    <Long>149.182222222222</Long>
  </Radar>
  <Radar Name="Perth TAR" Type="SSR_ModeC" Elevation="43" MaxRange="255">
    <Lat>-31.9227777777778</Lat>
    <Long>115.981666666667</Long>
  </Radar>
  <Radar Name="Perth TAR" Type="PRI" MaxRange="50" Elevation="43">
    <Lat>-31.9227777777778</Lat>
    <Long>115.981666666667</Long>
  </Radar>
  <Radar Name="Round Mt." Type="SSR_ModeC" Elevation="1604" MaxRange="255">
    <Lat>-30.4377777777778</Lat>
    <Long>152.240277777778</Long>
  </Radar>
  <Radar Name="Summertown" Type="SSR_ModeS" Elevation="655" MaxRange="255">
    <Lat>-34.9522222222222</Lat>
    <Long>138.716944444444</Long>
  </Radar>
  <Radar Name="William Town" Type="SSR_ModeC" Elevation="6" MaxRange="255">
    <Lat>-32.7997222222222</Lat>
    <Long>151.828055555556</Long>
  </Radar>
  <Radar Name="Hanns Tableland" Type="SSR_ModeC" Elevation="969" MaxRange="255">
    <Lat>-16.9155555555556</Lat>
    <Long>145.252222222222</Long>
  </Radar>
  <Radar Name="Swampy Ridge" Type="SSR_ModeC" Elevation="1161" MaxRange="255">
    <Lat>-21.0825</Lat>
    <Long>148.439166666667</Long>
  </Radar>
  <Radar Name="Mt. Hardgrave" Type="SSR_ModeC" Elevation="244" MaxRange="255">
    <Lat>-27.5</Lat>
    <Long>153.453055555556</Long>
  </Radar>
  <Radar Name="Townsville" Type="SSR_ModeC" Elevation="200" MaxRange="255">
    <Lat>-19.1886111111111</Lat>
    <Long>146.764722222222</Long>
  </Radar>
  <Radar Name="Tindal" Type="SSR_ModeC" Elevation="222" MaxRange="255">
    <Lat>-14.5111111111111</Lat>
    <Long>132.446944444444</Long>
  </Radar>
  <Radar Name="Oakey TAR" Type="SSR_ModeC" Elevation="553" MaxRange="255">
    <Lat>-27.3283333333333</Lat>
    <Long>151.737777777778</Long>
  </Radar>
  <Radar Name="Oakey TAR" Type="PRI" MaxRange="50" Elevation="553">
    <Lat>-27.3283333333333</Lat>
    <Long>151.737777777778</Long>
  </Radar>
  <Radar Name="Redden Creek TAR" Type="SSR_ModeC" Elevation="30" MaxRange="255">
    <Lat>-16.8608333333333</Lat>
    <Long>145.746944444444</Long>
  </Radar>
  <Radar Name="Redden Creek TAR" Type="PRI" MaxRange="50" Elevation="30">
    <Lat>-16.8608333333333</Lat>
    <Long>145.746944444444</Long>
  </Radar>
  <Radar Name="Brisbane TAR" Type="SSR_ModeC" Elevation="25" MaxRange="255">
    <Lat>-27.3577777777778</Lat>
    <Long>153.116111111111</Long>
  </Radar>
  <Radar Name="Brisbane TAR" Type="PRI" MaxRange="50" Elevation="25">
    <Lat>-27.3577777777778</Lat>
    <Long>153.116111111111</Long>
  </Radar>
  <Radar Name="Mt. Sommerville TAR" Type="SSR_ModeC" Elevation="363" MaxRange="255">
    <Lat>-28.2155555555556</Lat>
    <Long>153.426111111111</Long>
  </Radar>
  <Radar Name="Mt. Sommerville TAR" Type="PRI" MaxRange="50" Elevation="363">
    <Lat>-28.2155555555556</Lat>
    <Long>153.426111111111</Long>
  </Radar>
  <Radar Name="Mt. Alma" Type="SSR_ModeC" Elevation="785" MaxRange="255">
    <Lat>-23.9597222222222</Lat>
    <Long>150.804722222222</Long>
  </Radar>
  <Radar Name="Darwin TAR" Type="SSR_ModeC" Elevation="31" MaxRange="255">
    <Lat>-12.4027777777778</Lat>
    <Long>130.862777777778</Long>
  </Radar>
  <Radar Name="Darwin TAR" Type="PRI" MaxRange="50" Elevation="31">
    <Lat>-12.4027777777778</Lat>
    <Long>130.862777777778</Long>
  </Radar>
  <Radar Name="Tabletop" Type="SSR_ModeC" Elevation="706" MaxRange="255">
    <Lat>-19.3786111111111</Lat>
    <Long>146.493611111111</Long>
  </Radar>
  <Radar Name="Launceston" Type="SSR_ModeC" Elevation="204" MaxRange="255">
    <Lat>-41.5425</Lat>
    <Long>147.218611111111</Long>
  </Radar>
  <Radar Name="Bundaberg ADSB" Type="ADSB" Elevation="107" MaxRange="255">
    <Lat>-24.895</Lat>
    <Long>152.32</Long>
  </Radar>
  <Radar Name="Thursday Island ADSB" Type="ADSB" Elevation="43" MaxRange="255">
    <Lat>-10.5916666666667</Lat>
    <Long>142.293333333333</Long>
  </Radar>
  <Radar Name="Longreach ADSB" Type="ADSB" Elevation="627" MaxRange="255">
    <Lat>-23.4266666666667</Lat>
    <Long>144.283333333333</Long>
  </Radar>
  <Radar Name="Bourke ADSB" Type="ADSB" Elevation="352" MaxRange="255">
    <Lat>-30.0433333333333</Lat>
    <Long>145.95</Long>
  </Radar>
  <Radar Name="Woomera ADSB" Type="ADSB" Elevation="548" MaxRange="255">
    <Lat>-31.1433333333333</Lat>
    <Long>136.808333333333</Long>
  </Radar>
  <Radar Name="Alice Springs ADSB" Type="ADSB" Elevation="1789" MaxRange="255">
    <Lat>-23.7783333333333</Lat>
    <Long>133.873333333333</Long>
  </Radar>
  <Radar Name="Tennant Creek ADSB" Type="ADSB" Elevation="1236" MaxRange="255">
    <Lat>-19.645</Lat>
    <Long>134.175</Long>
  </Radar>
  <Radar Name="Caiguna ADSB" Type="ADSB" Elevation="287" MaxRange="255">
    <Lat>-32.2633333333333</Lat>
    <Long>125.495</Long>
  </Radar>
  <Radar Name="Esperance ADSB" Type="ADSB" Elevation="470" MaxRange="255">
    <Lat>-33.6866666666667</Lat>
    <Long>121.821666666667</Long>
  </Radar>
  <Radar Name="Leonora ADSB" Type="ADSB" Elevation="1217" MaxRange="255">
    <Lat>-28.8783333333333</Lat>
    <Long>121.32</Long>
  </Radar>
  <Radar Name="Meekatharra ADSB" Type="ADSB" Elevation="1713" MaxRange="255">
    <Lat>-26.615</Lat>
    <Long>118.54</Long>
  </Radar>
  <Radar Name="Billabong ADSB" Type="ADSB" Elevation="515" MaxRange="255">
    <Lat>-26.7441666666667</Lat>
    <Long>114.351666666667</Long>
  </Radar>
  <Radar Name="Newman ADSB" Type="ADSB" Elevation="1724" MaxRange="255">
    <Lat>-23.4183333333333</Lat>
    <Long>119.786666666667</Long>
  </Radar>
  <Radar Name="Karratha ADSB" Type="ADSB" Elevation="29" MaxRange="255">
    <Lat>-20.7066666666667</Lat>
    <Long>116.783333333333</Long>
  </Radar>
  <Radar Name="Telfer ADSB" Type="ADSB" Elevation="970" MaxRange="255">
    <Lat>-21.7116666666667</Lat>
    <Long>122.213333333333</Long>
  </Radar>
  <Radar Name="Broome ADSB" Type="ADSB" Elevation="56" MaxRange="255">
    <Lat>-17.9466666666667</Lat>
    <Long>122.235</Long>
  </Radar>
  <Radar Name="Ayers Rock ADSB" Type="ADSB" Elevation="1626" MaxRange="255">
    <Lat>-25.1733333333333</Lat>
    <Long>130.975</Long>
  </Radar>
  <Radar Name="Balgo Hill ADSB" Type="ADSB" Elevation="1440" MaxRange="255">
    <Lat>-20.1366666666667</Lat>
    <Long>127.988333333333</Long>
  </Radar>
  <Radar Name="Birdsville ADSB" Type="ADSB" Elevation="157" MaxRange="255">
    <Lat>-25.8966666666667</Lat>
    <Long>139.353333333333</Long>
  </Radar>
  <Radar Name="Gove ADSB" Type="ADSB" Elevation="192" MaxRange="255">
    <Lat>-12.27</Lat>
    <Long>136.825</Long>
  </Radar>
  <Radar Name="Jackson ADSB" Type="ADSB" Elevation="352" MaxRange="255">
    <Lat>-27.6658333333333</Lat>
    <Long>142.415555555556</Long>
  </Radar>
  <Radar Name="Longreach ADSB" Type="ADSB" Elevation="627" MaxRange="255">
    <Lat>-23.4283333333333</Lat>
    <Long>144.288333333333</Long>
  </Radar>
  <Radar Name="Mornington Island ADSB" Type="ADSB" Elevation="33" MaxRange="255">
    <Lat>-16.9916666666667</Lat>
    <Long>139.17</Long>
  </Radar>
  <Radar Name="Mount Isa ADSB" Type="ADSB" Elevation="1121" MaxRange="255">
    <Lat>-20.675</Lat>
    <Long>139.486666666667</Long>
  </Radar>
  <Radar Name="Nullabor ADSB" Type="ADSB" Elevation="220" MaxRange="255">
    <Lat>-31.4416666666667</Lat>
    <Long>130.901666666667</Long>
  </Radar>
  <Radar Name="Oodnadata ADSB" Type="ADSB" Elevation="386" MaxRange="255">
    <Lat>-27.555</Lat>
    <Long>135.446666666667</Long>
  </Radar>
  <Radar Name="Warburton ADSB" Type="ADSB" Elevation="1500" MaxRange="255">
    <Lat>-26.1283333333333</Lat>
    <Long>126.58</Long>
  </Radar>
  <Radar Name="Doongan ADSB" Type="ADSB" Elevation="1669" MaxRange="255">
    <Lat>-15.39</Lat>
    <Long>126.206944444444</Long>
  </Radar>
  <Radar Name="Broken Hill ADSB" Type="ADSB" Elevation="958" MaxRange="255">
    <Lat>-31.9916666666667</Lat>
    <Long>141.435</Long>
  </Radar>
  <Radar Name="Mount Hope ADSB" Type="ADSB" Elevation="542" MaxRange="255">
    <Lat>-31.9916666666667</Lat>
    <Long>141.435</Long>
  </Radar>
</Radars>