<?xml version="1.0" encoding="utf-8"?>
<Radars>
  <Radar Name="Sydney TAR" Type="PRI" Elevation="30" MaxRange="50">
    <Lat>-33.9499180556585</Lat>
    <Long>151.181285000096</Long>
  </Radar>
  <Radar Name="Mt Majura" Type="PRI" Elevation="896" MaxRange="50">
    <Lat>-35.2376169445304</Lat>
    <Long>149.18233111004</Long>
  </Radar>
  <Radar Name="Mt Hardgrave" Type="PRI" Elevation="229" MaxRange="50">
    <Lat>-27.5000038888888</Lat>
    <Long>153.453186111106</Long>
  </Radar>
  <Radar Name="Townsville" Type="PRI" Elevation="189" MaxRange="50">
    <Lat>-19.1891450004031</Lat>
    <Long>146.764721944928</Long>
  </Radar>
  <Radar Name="Redden Creek TAR" Type="PRI" Elevation="28" MaxRange="50">
    <Lat>-16.8607599999756</Lat>
    <Long>145.747006944319</Long>
  </Radar>
  <Radar Name="Adelaide TAR" Type="PRI" Elevation="32" MaxRange="50">
    <Lat>-34.9524288890418</Lat>
    <Long>138.532079999397</Long>
  </Radar>
  <Radar Name="Perth TAR" Type="PRI" Elevation="42" MaxRange="50">
    <Lat>-31.9226999996851</Lat>
    <Long>115.981478889349</Long>
  </Radar>
  <Radar Name="Gellibrand Hill TAR" Type="PRI" Elevation="226" MaxRange="50">
    <Lat>-37.6528430554084</Lat>
    <Long>144.874253888583</Long>
  </Radar>
  <Radar Name="East Sale" Type="PRI" Elevation="87" MaxRange="50">
    <Lat>-38.1880549995539</Lat>
    <Long>147.182503889004</Long>
  </Radar>
  <Radar Name="Mt Somerville" Type="PRI" Elevation="339" MaxRange="50">
    <Lat>-28.215558055602</Lat>
    <Long>153.426003055337</Long>
  </Radar>
  <Radar Name="Williamtown" Type="PRI" Elevation="60" MaxRange="50">
    <Lat>-32.7734188889774</Lat>
    <Long>151.821969999714</Long>
  </Radar>
  <Radar Name="Oakey" Type="PRI" Elevation="522" MaxRange="50">
    <Lat>-27.3268299999336</Lat>
    <Long>151.738839999711</Long>
  </Radar>
  <Radar Name="Cecil Park" Type="PRI" Elevation="141" MaxRange="50">
    <Lat>-33.8764899992074</Lat>
    <Long>150.837758055733</Long>
  </Radar>
  <Radar Name="Pearce TAR" Type="PRI" Elevation="228" MaxRange="50">
    <Lat>-31.3937919442852</Lat>
    <Long>115.93173111106</Long>
  </Radar>
  <Radar Name="Darwin TAR" Type="PRI" Elevation="46" MaxRange="50">
    <Lat>-12.4027638887987</Lat>
    <Long>130.862743888423</Long>
  </Radar>
  <Radar Name="Tindal TAR" Type="PRI" Elevation="186" MaxRange="50">
    <Lat>-14.4927799999093</Lat>
    <Long>132.391943888304</Long>
  </Radar>
  <Radar Name="Amberley TAR" Type="PRI" Elevation="91" MaxRange="50">
    <Lat>-27.6352799999605</Lat>
    <Long>152.681111110995</Long>
  </Radar>
  <Radar Name="Sydney TAR" Type="SSR_ModeC" Elevation="33" MaxRange="255">
    <Lat>-33.9499180556585</Lat>
    <Long>151.181285000096</Long>
  </Radar>
  <Radar Name="Mt Majura" Type="SSR_ModeS" Elevation="896" MaxRange="255">
    <Lat>-35.2376169445304</Lat>
    <Long>149.18233111004</Long>
  </Radar>
  <Radar Name="Mt Macedon" Type="SSR_ModeS" Elevation="1044" MaxRange="255">
    <Lat>-37.3833769444447</Lat>
    <Long>144.575878055083</Long>
  </Radar>
  <Radar Name="Brisbane TAR" Type="SSR_ModeS" Elevation="13" MaxRange="255">
    <Lat>-27.3576969442889</Lat>
    <Long>153.116081111506</Long>
  </Radar>
  <Radar Name="Mt Hardgrave" Type="SSR_ModeC" Elevation="252" MaxRange="255">
    <Lat>-27.5000038888888</Lat>
    <Long>153.453186111106</Long>
  </Radar>
  <Radar Name="Redden Creek" Type="SSR_ModeC" Elevation="33" MaxRange="255">
    <Lat>-16.8607599999756</Lat>
    <Long>145.747006944319</Long>
  </Radar>
  <Radar Name="Greenhill" Type="SSR_ModeS" Elevation="642" MaxRange="255">
    <Lat>-34.9522349997889</Lat>
    <Long>138.717026111109</Long>
  </Radar>
  <Radar Name="Adelaide TAR" Type="SSR_ModeC" Elevation="35" MaxRange="255">
    <Lat>-34.9524288890418</Lat>
    <Long>138.532079999397</Long>
  </Radar>
  <Radar Name="Kalamunda" Type="SSR_ModeC" Elevation="361" MaxRange="255">
    <Lat>-31.9909700000969</Lat>
    <Long>116.071493888988</Long>
  </Radar>
  <Radar Name="Round Mountain" Type="SSR_ModeS" Elevation="1554" MaxRange="255">
    <Lat>-30.437668889047</Lat>
    <Long>152.240300000117</Long>
  </Radar>
  <Radar Name="Gellibrand Hill" Type="SSR_ModeC" Elevation="228" MaxRange="255">
    <Lat>-37.6528430554084</Lat>
    <Long>144.874253888583</Long>
  </Radar>
  <Radar Name="East Sale" Type="SSR_ModeC" Elevation="92" MaxRange="255">
    <Lat>-38.1880549995539</Lat>
    <Long>147.182503889004</Long>
  </Radar>
  <Radar Name="Mt Sommerville" Type="SSR_ModeC" Elevation="344" MaxRange="255">
    <Lat>-28.215558055602</Lat>
    <Long>153.426003055337</Long>
  </Radar>
  <Radar Name="Williamtown" Type="SSR_ModeC" Elevation="79" MaxRange="255">
    <Lat>-32.7734188889774</Lat>
    <Long>151.821969999714</Long>
  </Radar>
  <Radar Name="Binalong" Type="SSR_ModeS" Elevation="776" MaxRange="255">
    <Lat>-34.6398330554677</Lat>
    <Long>148.589814999917</Long>
  </Radar>
  <Radar Name="Cecil Park" Type="SSR_ModeS" Elevation="143" MaxRange="255">
    <Lat>-33.8764899992074</Lat>
    <Long>150.837758055733</Long>
  </Radar>
  <Radar Name="Eungella" Type="SSR_ModeS" Elevation="1123" MaxRange="255">
    <Lat>-21.0826480558763</Lat>
    <Long>148.439388055572</Long>
  </Radar>
  <Radar Name="Darwin" Type="SSR_ModeC" Elevation="61" MaxRange="255">
    <Lat>-12.4304430556173</Lat>
    <Long>130.961518055573</Long>
  </Radar>
  <Radar Name="Hann Tableland" Type="SSR_ModeS" Elevation="998" MaxRange="255">
    <Lat>-16.9155650004745</Lat>
    <Long>145.252083055675</Long>
  </Radar>
  <Radar Name="Mt Alma" Type="SSR_ModeS" Elevation="757" MaxRange="255">
    <Lat>-23.9596619445831</Lat>
    <Long>150.804856111016</Long>
  </Radar>
  <Radar Name="Tabletop Mountain" Type="SSR_ModeS" Elevation="702" MaxRange="255">
    <Lat>-19.3787280558298</Lat>
    <Long>146.493621944388</Long>
  </Radar>
  <Radar Name="Tindal" Type="ADSB" Elevation="155" MaxRange="255">
    <Lat>-14.513021110557</Lat>
    <Long>132.363418056071</Long>
  </Radar>
  <Radar Name="Yulara" Type="ADSB" Elevation="502" MaxRange="255">
    <Lat>-25.1730088891151</Lat>
    <Long>130.9747911113</Long>
  </Radar>
  <Radar Name="Pt Lookout" Type="ADSB" Elevation="1551" MaxRange="255">
    <Lat>-30.4817288889239</Lat>
    <Long>152.397643055332</Long>
  </Radar>
  <Radar Name="Orange" Type="ADSB" Elevation="1366" MaxRange="255">
    <Lat>-33.3460119444256</Lat>
    <Long>148.981106110724</Long>
  </Radar>
  <Radar Name="Mt Big Ben" Type="ADSB" Elevation="1178" MaxRange="255">
    <Lat>-36.4035880554933</Lat>
    <Long>146.939863055696</Long>
  </Radar>
  <Radar Name="Roma" Type="ADSB" Elevation="326" MaxRange="255">
    <Lat>-26.5426000004013</Lat>
    <Long>148.781660000856</Long>
  </Radar>
  <Radar Name="Mt Isa" Type="ADSB" Elevation="507" MaxRange="255">
    <Lat>-20.7355838890032</Lat>
    <Long>139.512693055905</Long>
  </Radar>
  <Radar Name="Nullarbor" Type="ADSB" Elevation="109" MaxRange="255">
    <Lat>-31.5811738895873</Lat>
    <Long>130.757746111136</Long>
  </Radar>
  <Radar Name="Kalamunda" Type="ADSB" Elevation="324" MaxRange="255">
    <Lat>-31.990708888912</Lat>
    <Long>116.071581111072</Long>
  </Radar>
  <Radar Name="Yerbillon" Type="ADSB" Elevation="441" MaxRange="255">
    <Lat>-31.4081899994984</Lat>
    <Long>118.765079999343</Long>
  </Radar>
  <Radar Name="Esperance" Type="ADSB" Elevation="153" MaxRange="255">
    <Lat>-33.687468888921</Lat>
    <Long>121.827521943736</Long>
  </Radar>
  <Radar Name="Thursday Is" Type="ADSB" Elevation="123" MaxRange="255">
    <Lat>-10.5772419443975</Lat>
    <Long>142.227501111912</Long>
  </Radar>
  <Radar Name="Bourke" Type="ADSB" Elevation="123" MaxRange="255">
    <Lat>-30.0448419443642</Lat>
    <Long>145.94981194449</Long>
  </Radar>
  <Radar Name="Mt Watalgan" Type="ADSB" Elevation="379" MaxRange="255">
    <Lat>-24.7021811111365</Lat>
    <Long>151.962421110645</Long>
  </Radar>
  <Radar Name="Longreach" Type="ADSB" Elevation="210" MaxRange="255">
    <Lat>-23.4281250002484</Lat>
    <Long>144.288156110918</Long>
  </Radar>
  <Radar Name="Broome" Type="ADSB" Elevation="25" MaxRange="255">
    <Lat>-17.9545999996364</Lat>
    <Long>122.233956111125</Long>
  </Radar>
  <Radar Name="Karratha" Type="ADSB" Elevation="32" MaxRange="255">
    <Lat>-20.7075319441967</Lat>
    <Long>116.773775000187</Long>
  </Radar>
  <Radar Name="Wannoo" Type="ADSB" Elevation="143" MaxRange="255">
    <Lat>-26.8159111116081</Lat>
    <Long>114.613073889539</Long>
  </Radar>
  <Radar Name="Tennant Creek" Type="ADSB" Elevation="396" MaxRange="255">
    <Lat>-19.6451750002181</Lat>
    <Long>134.185173055607</Long>
  </Radar>
  <Radar Name="Paraburdoo" Type="ADSB" Elevation="475" MaxRange="255">
    <Lat>-23.2326111121724</Lat>
    <Long>117.665036111698</Long>
  </Radar>
  <Radar Name="Meekatharra" Type="ADSB" Elevation="546" MaxRange="255">
    <Lat>-26.6118038887158</Lat>
    <Long>118.544891111677</Long>
  </Radar>
  <Radar Name="Singleton" Type="ADSB" Elevation="706" MaxRange="255">
    <Lat>-29.4659638896585</Lat>
    <Long>117.298928055105</Long>
  </Radar>
  <Radar Name="Alice Springs" Type="ADSB" Elevation="798" MaxRange="255">
    <Lat>-23.7223661112289</Lat>
    <Long>133.857241111249</Long>
  </Radar>
  <Radar Name="Newman" Type="ADSB" Elevation="630" MaxRange="255">
    <Lat>-23.3622719444335</Lat>
    <Long>119.725499999585</Long>
  </Radar>
  <Radar Name="Jackson" Type="ADSB" Elevation="189" MaxRange="255">
    <Lat>-27.5779350001986</Lat>
    <Long>142.378726111228</Long>
  </Radar>
  <Radar Name="Leonora" Type="ADSB" Elevation="402" MaxRange="255">
    <Lat>-28.8795819445203</Lat>
    <Long>121.32045499982</Long>
  </Radar>
  <Radar Name="Birdsville" Type="ADSB" Elevation="70" MaxRange="255">
    <Lat>-25.8962869444241</Lat>
    <Long>139.353461944638</Long>
  </Radar>
  <Radar Name="Gove" Type="ADSB" Elevation="81" MaxRange="255">
    <Lat>-12.2683588888651</Lat>
    <Long>136.820816944602</Long>
  </Radar>
  <Radar Name="Warburton" Type="ADSB" Elevation="476" MaxRange="255">
    <Lat>-26.1280469451721</Lat>
    <Long>126.577733055937</Long>
  </Radar>
  <Radar Name="Telfer" Type="ADSB" Elevation="319" MaxRange="255">
    <Lat>-21.7123669439927</Lat>
    <Long>122.214846945181</Long>
  </Radar>
  <Radar Name="Caiguna" Type="ADSB" Elevation="119" MaxRange="255">
    <Lat>-32.2658888883889</Lat>
    <Long>125.488958055557</Long>
  </Radar>
  <Radar Name="Oodnadatta" Type="ADSB" Elevation="170" MaxRange="255">
    <Lat>-27.5071499999613</Lat>
    <Long>135.445474999708</Long>
  </Radar>
  <Radar Name="Mornington Is" Type="ADSB" Elevation="33" MaxRange="255">
    <Lat>-16.6590669440106</Lat>
    <Long>139.170880000262</Long>
  </Radar>
  <Radar Name="Broken Hill" Type="ADSB" Elevation="314" MaxRange="255">
    <Lat>-32.0048830555752</Lat>
    <Long>141.47628388914</Long>
  </Radar>
  <Radar Name="Learmonth" Type="ADSB" Elevation="13" MaxRange="255">
    <Lat>-22.2409369441991</Lat>
    <Long>114.094359999833</Long>
  </Radar>
  <Radar Name="Doogan" Type="ADSB" Elevation="403" MaxRange="255">
    <Lat>-15.3794388887162</Lat>
    <Long>126.310401111096</Long>
  </Radar>
  <Radar Name="North Block" Type="ADSB" Elevation="384" MaxRange="255">
    <Lat>-34.3574530555867</Lat>
    <Long>135.55084194442</Long>
  </Radar>
  <Radar Name="Kyuna" Type="ADSB" Elevation="215" MaxRange="255">
    <Lat>-21.4567611113191</Lat>
    <Long>141.951140000066</Long>
  </Radar>
  <Radar Name="Woomera" Type="ADSB" Elevation="192" MaxRange="255">
    <Lat>-31.1428311118235</Lat>
    <Long>136.80731111085</Long>
  </Radar>
  <Radar Name="Mt William" Type="ADSB" Elevation="1203" MaxRange="255">
    <Lat>-37.2931319448476</Lat>
    <Long>142.601406111056</Long>
  </Radar>
  <Radar Name="Eungella" Type="ADSB" Elevation="1121" MaxRange="255">
    <Lat>-21.0826480558763</Lat>
    <Long>148.439388055572</Long>
  </Radar>
  <Radar Name="Balgo Hills" Type="ADSB" Elevation="421" MaxRange="255">
    <Lat>-20.1351088889952</Lat>
    <Long>127.989028055624</Long>
  </Radar>
  <Radar Name="Mt Barrett" Type="ADSB" Elevation="681" MaxRange="255">
    <Lat>-18.1632288886234</Lat>
    <Long>127.550728055544</Long>
  </Radar>
  <Radar Name="Mt Sandon" Type="ADSB" Elevation="1358" MaxRange="255">
    <Lat>-31.3871700000328</Lat>
    <Long>151.411856945232</Long>
  </Radar>
  <Radar Name="Lord Howe Is" Type="ADSB" Elevation="55" MaxRange="255">
    <Lat>-31.5272711106266</Lat>
    <Long>159.073931944805</Long>
  </Radar>
  <Radar Name="Hann Tableland" Type="ADSB" Elevation="980" MaxRange="255">
    <Lat>-16.9158111099154</Lat>
    <Long>145.252256111009</Long>
  </Radar>
  <Radar Name="Mt Tassie" Type="ADSB" Elevation="759" MaxRange="255">
    <Lat>-38.3999469434222</Lat>
    <Long>146.565809999779</Long>
  </Radar>
  <Radar Name="Mt Macedon" Type="ADSB" Elevation="1037" MaxRange="255">
    <Lat>-37.3836311111246</Lat>
    <Long>144.575863055202</Long>
  </Radar>
  <Radar Name="Mt Bingar" Type="ADSB" Elevation="456" MaxRange="255">
    <Lat>-34.1211499999898</Lat>
    <Long>146.235136944506</Long>
  </Radar>
  <Radar Name="Mt Hardgrave" Type="ADSB" Elevation="221" MaxRange="255">
    <Lat>-27.4999169436594</Lat>
    <Long>153.453299999982</Long>
  </Radar>
  <Radar Name="Mt Rumney TAS" Type="ADSB" Elevation="389" MaxRange="255">
    <Lat>-42.8605661107227</Lat>
    <Long>147.453923888784</Long>
  </Radar>
  <Radar Name="Oatlands TAS" Type="ADSB" Elevation="779" MaxRange="255">
    <Lat>-42.3678480555226</Lat>
    <Long>147.471248055684</Long>
  </Radar>
  <Radar Name="Wayayinah TAS" Type="ADSB" Elevation="1039" MaxRange="255">
    <Lat>-42.2708299998815</Lat>
    <Long>146.544503054706</Long>
  </Radar>
  <Radar Name="Black Bottom Hill TAS" Type="ADSB" Elevation="664" MaxRange="255">
    <Lat>-41.953623055527</Lat>
    <Long>147.633913055501</Long>
  </Radar>
  <Radar Name="Mt George TAS" Type="ADSB" Elevation="223" MaxRange="255">
    <Lat>-41.103338888986</Lat>
    <Long>146.862500000186</Long>
  </Radar>
  <Radar Name="Poatina Saddle TAS" Type="ADSB" Elevation="1154" MaxRange="255">
    <Lat>-41.8109250005335</Lat>
    <Long>146.852858055523</Long>
  </Radar>
  <Radar Name="Devonport TAS" Type="ADSB" Elevation="24" MaxRange="255">
    <Lat>-41.1704399999386</Lat>
    <Long>146.4277288892</Long>
  </Radar>
  <Radar Name="Brisbane" Type="SMR" Elevation="75" MaxRange="5">
    <Lat>-27.3878669441057</Lat>
    <Long>153.115481110662</Long>
  </Radar>
  <Radar Name="Perth" Type="SMR" Elevation="90" MaxRange="5">
    <Lat>-31.9433719448124</Lat>
    <Long>115.975061111028</Long>
  </Radar>
  <Radar Name="Sydney" Type="SMR" Elevation="44" MaxRange="5">
    <Lat>-33.9454100008433</Lat>
    <Long>151.180729999828</Long>
  </Radar>
  <Radar Name="Melbourne" Type="SMR" Elevation="145" MaxRange="5">
    <Lat>-37.6577219442464</Lat>
    <Long>144.831525000061</Long>
  </Radar>
</Radars>